Code_ID	Stream	Location	Lat_degree	Long_degree	Source	Day	Month	Year	Fish_number	SA_m2	TP_mg.l	TN_mg.l	Temp_degree_celcius	Prec_mm	Alt_m	IMPRESS
1	Ebro	Miranda de Ebro	42.68728233	-2.954187283	CHE	18	10	2007	74	698	0.1	8.38	12.5	727	454.68	2
2	Arga	Funes	42.30100325	-1.789143327	CHE	8	7	2007	143	415	0.24	10.93	13.6	576	279.1	10.5
3	Aragon	Caparroso	42.34471193	-1.650659428	CHE	27	8	2007	70	575	0.1	8.35	13.4	625	300.01	10.65
4	Martin	Hijar	41.17389714	-0.456684781	CHE	25	10	2007	68	358	0.13	13.1	14.6	371	294.61	10.75
5	Guadalope	Alcaniz	40.93276673	-0.196696791	CHE	24	10	2006	54	887	0.11	10.33	14.3	431	383.92	10.25
6	Aragon	Jaca	42.57834009	-0.55689434	CHE	23	7	2007	125	627	0.24	1	9.8	767	776.42	3.75
7	Aragon	Castiello de Jaca	42.57834009	-0.55689434	CHE	23	7	2007	101	627	0.24	1	9.5	805	838.02	3.75
8	Segre	Seo de Urgell	42.35711018	1.500086812	CHE	8	7	2003	158	100	0.1	2.05	11.4	758	702.49	8.75
9	Najerilla	Torremontalbo	42.49673501	-2.686992075	CHE	13	7	2007	187	646	0.16	5.58	12.9	575	420.92	10.1
10	Tiron	Cuzcurrita	42.53679502	-2.977690624	CHE	17	10	2007	76	780	0.11	21.03	12.2	644	527.42	7.8
11	Irati	Liedena	42.60375542	-1.276314545	CHE	21	7	2007	172	519	0.1	3.47	12.1	824	399.45	10.65
12	Araquil	Asiain	42.8339168	-1.789827371	CHE	18	7	2007	110	546	0.14	3.83	12.4	1027	392.41	9.4
13	Jalon	Grisen	41.74553721	-1.141600517	CHE	20	10	2007	102	737	0.16	18.28	14.3	373	234.39	10.85
14	Nela	Trespaderne	42.80857972	-3.397842647	CHE	30	9	2007	120	691	0.11	9.64	11.7	798	537.33	4.7
15	Oca	Ona	42.73549072	-3.430469302	CHE	1	10	2007	185	937	0.14	19.1	11.7	752	584.7	5.65
16	Vero	Barbastro	42.04114465	0.113901391	CHE	25	9	2007	72	796	1.05	5.83	12.8	493	327.29	10.1
17	Noguera Ribagorzana	Canal de Pinana	41.86760544	0.577310359	CHE	2	7	2003	42	926	0.06	2.21	13.9	499	296.14	10
18	Aragon	Yesa	42.61555604	-1.211356843	CHE	25	8	2007	88	749	0.1	2.1	12.2	813	430.24	10.65
19	Guadalope	Santolea	40.81180413	-0.271776462	CHE	25	10	2007	190	1014	0.1	1.63	13.6	446	517.48	8.45
20	Ebro	Sastago	41.32534122	-0.364526337	CHE	27	8	2005	144	1200	0.2	16.74	15.3	358	139.44	10.1
21	Arga	Huarte	42.85174573	-1.581831592	CHE	20	7	2007	235	641	0.1	2.3	12	1067	455.68	7.5
22	Ebro	Cereceda	42.77600412	-3.458853563	CHE	1	10	2007	206	1200	0.1	5.44	11.8	771	556.97	9.4
23	Bayas	Miranda de Ebro	42.70214709	-2.929634517	CHE	15	10	2007	77	398	0.1	7.4	12.4	739	460.3	10.15
24	Jerea	Palazuelos de Cuesta Urria	42.79469607	-3.355994989	CHE	30	9	2007	217	842	0.1	10.2	11.8	790	555.59	3.45
25	Matarrana	Nonaspe	41.21538969	0.225290806	CHE	19	6	2003	109	729	0.08	11.1	15.4	427	151.28	9.4
26	Oroncillo	Oron	42.67074598	-2.97741091	CHE	16	10	2007	121	451	0.14	31.39	12.3	720	487.11	4.7
27	Leza	Ribafrecha	42.35360807	-2.383785465	CHE	10	7	2007	142	725	0.1	1.97	12.8	481	471.86	4.05
28	Ebro	Haro	42.58415748	-2.835417008	CHE	18	10	2007	42	804	0.21	11.33	12.7	654	438.28	10
29	Ebro	Presa Pina	41.564826	-0.689123976	CHE	7	8	2005	91	710	0.32	17.86	14.9	351	174.7	10.35
30	Ebro	Villafranca de Ebro	41.564826	-0.689123976	CHE	7	8	2005	39	710	0.32	17.86	14.9	349	168.89	10.35
31	Alhama	Alfaro	42.17885665	-1.7599222	CHE	7	7	2007	102	375	0.2	10.6	13.7	521	289.28	6.25
32	Arga	Ororbia	42.17885665	-1.7599222	CHE	18	7	2007	106	674	0.31	14.7	13.7	521	289.28	6.25
33	Alcanadre	Ontinena	41.61685545	0.31832954	CHE	26	9	2007	141	617	0.24	21.36	15	407	135.32	11.5
34	Oja	Castanares	41.57257314	-1.759714412	CHE	11	7	2007	158	640	0.09	10.07	11.5	460	765.96	9.4
35	Najerilla	Anguiano	42.25713573	-2.774342443	CHE	12	7	2007	54	465	0.1	1.43	12	529	627.71	9.4
36	Cidacos	Autol	42.21491288	-2.014778164	CHE	8	7	2007	135	1000	0.1	6.9	12.9	516	435.55	9.05
37	Ebro	San Adrian	42.33100808	-1.939778202	CHE	18	10	2007	51	385	0.21	12.2	13.6	557	293.17	9.7
38	Ebro	Rincon de Soto	42.24950116	-1.837343915	CHE	19	10	2007	61	659	0.33	12.9	13.7	537	277.72	10.4
39	Ebro	Tudela	42.06019751	-1.584645444	CHE	19	10	2007	58	158	0.33	12.08	13.9	483	252.92	10.35
40	Trueba	Quintanilla de Pienza	43.00926312	-3.483801846	CHE	28	9	2007	99	821	0.1	4.85	11.2	917	637.23	4.4
41	Jubera	Murillo de Rio Leza	42.39516477	-2.322069577	CHE	11	7	2007	129	510	0.1	8.63	12.9	479	421.72	4.7
42	Aragon	Milagro	42.23473757	-1.755568624	CHE	9	7	2007	87	599	0.11	12.65	13.7	547	268.83	10.25
43	Arga	Miranda de Arga	42.4848333	-1.828359891	CHE	19	7	2007	69	769	0.13	11.43	13.3	688	303.85	10.5
44	Alzania	Urdalur	42.90439003	-2.197376773	CHE	4	10	2007	69	607	0.1	1.3	12	984	534.56	5.65
45	Aguas Limpias	Sarra	42.77985141	-0.327602767	CHE	28	8	2007	45	536	0.1	0.67	6.9	1021	1293.66	6.9
46	Aurin	Isin	42.59798285	-0.400394129	CHE	28	8	2007	70	580	0.1	0.5	8.4	858	1007.15	3.45
47	Guatizalema	Vadiello	42.21510319	-0.285500092	CHE	30	8	2007	79	686	0.1	0.65	10.7	553	667.22	8.15
48	Flumen	Tierz	42.13826508	-0.355842672	CHE	30	8	2007	167	398	0.1	0.75	11.8	471	462.16	8.75
49	Matarrana	Maella	41.11724722	0.137447271	CHE	24	7	2003	146	754	0.05	8.75	14.8	450	280.55	9.4
50	Najerilla	Najera	42.42639884	-2.733353452	CHE	12	7	2007	131	486	0.13	4.9	12.4	569	478.34	9.7
51	Matarrana	Mazaleon	41.00057077	0.119883603	CHE	24	7	2003	187	655	0.09	14.3	14.1	490	381.34	9.4
52	Najerilla	Banos de Rio Tobia	42.33224321	-2.754750364	CHE	12	7	2007	76	613	0.14	2.2	12.4	534	547.62	9.7
53	Ebro	San Vicente de la Sonsierra	42.55884283	-2.763659148	CHE	18	10	2007	66	616	0.28	10.6	12.8	627	453.57	10.1
54	Salon	Villatomil	42.96419119	-3.444174811	CHE	28	9	2007	53	710	0.1	16.6	11.3	888	608.87	3.75
55	Segre	Canal de Urgel	41.93607045	1.169735667	CHE	9	7	2003	123	744	0.09	3.47	12.4	672	336.01	10.25
56	Gallego	Acequia Urdana	41.75739816	-0.80332384	CHE	20	10	2007	85	806	0.1	10.2	14.3	371	228.2	7.5
57	Algas	Mas de Banetes	40.85549475	0.25120514	CHE	28	7	2005	59	250	0.08	8.05	13.5	554	542.33	3.75
58	Trueba	Espinosa de los Monteros	43.08384338	-3.558727053	CHE	29	9	2007	150	1081	0.1	0.75	10.5	959	749.43	4.4
59	Arga	Peralta	42.35052853	-1.780786869	CHE	8	7	2007	106	546	0.18	13.88	13.6	606	286.27	10.5
60	Aragon	Acequia Rio Molinar	42.31824167	-1.731753566	CHE	27	8	2007	201	703	0.1	8.6	13.6	597	285.68	10.65
61	Esca	Sigues	42.61724915	-1.020846022	CHE	22	7	2007	109	769	0.1	0.65	11.6	794	494.13	3.15
62	Cinca	Puente de las Pilas	42.0658044	0.218448513	CHE	25	9	2007	183	854	0.1	1.6	13.2	506	323.67	8.75
63	Bergantes	Aguaviva	40.79799328	-0.158656072	CHE	25	10	2006	169	956	0.07	4.33	13.7	465	512.93	7.5
64	Urederra	Amescoa Baja	42.77064649	-2.126402276	CHE	17	7	2007	38	876	0.1	3.1	12	866	511.98	4.4
65	Esca	Burgui	42.72578835	-0.9913701	CHE	22	7	2007	174	665	0.1	0.5	10.7	883	613.29	3.15
66	Anduna	Ochagavia	42.91360997	-1.057939489	CHE	21	7	2007	34	424	0.06	1.01	9.3	1045	795.22	2.8
67	Llobregat	Bastareny	42.26270199	1.836975647	ACA	16	7	2008	69	630.9	0.07	2.5	10.6	833	844.31	0.71
68	Llobregat	Golarda	41.76230121	2.013342472	ACA	16	8	2008	81	305.44	3.16	21.78	14	667	427.11	8.29
69	Llobregat	Guixers	42.12469445	1.647387871	ACA	23	8	2008	40	748.44	0.13	3.67	10.6	815	804.99	0.57
70	Llobregat	Cardona	41.94095584	1.670362537	ACA	28	8	2008	70	478	0.66	6.45	13.5	657	437.11	0.41
71	Llobregat	Cardener	41.67825748	1.852269711	ACA	10	9	2008	49	574	0.37	9.63	15.5	584	161.88	12
72	Llobregat	Vallvidrera	41.43150135	2.02416105	ACA	2	10	2008	100	159	0.2	3	16.4	595	110.58	1.99
73	Ega	Maranon	42.62661451	-2.447989578	CHE	9	7	2007	74	480	0.13	5.1	11.7	701	644.05	3.45
74	Veral	Binies	42.65892208	-0.784672597	CHE	22	7	2007	115	702	0.1	0.5	10.1	827	661.12	2.8
75	Arga	Quinto Real	43.01147977	-1.514672743	CHE	20	7	2007	56	563	0.1	1.7	10.5	1175	707.12	7.8
76	Arba de Luesia	Puente de Rivas	42.16496512	-1.134322476	CHE	25	8	2007	111	116	0.05	12.43	13.1	531	346.06	7.8
77	Besos	Aiguafreda 	41.76613049	2.266116818	ACA	8	10	2008	69	521.63	0.12	4.31	13.7	749	413.02	1.02
78	Besos	Llerona	41.65296958	2.293823618	ACA	10	10	2008	73	572.4	2.46	19.44	15.3	684	189.37	1.43
79	Besos	Bigues	41.67583688	2.207915967	ACA	18	10	2008	110	433.8	1.17	24.35	15.2	664	215	10.97
80	Besos	Parets del Vall	41.57652203	2.240858164	ACA	20	10	2008	34	394.5	1.27	19.25	16	621	86.21	4.6
81	Besos	Caldes de Montbui	41.64720396	2.153628754	ACA	22	10	2008	41	276.5	0.75	7.4	15.1	654	232.03	12
82	Ebro	Reinosa	43.00258838	-4.166169097	CHE	29	9	2007	83	721	0.1	1.95	10.1	844	861.59	4.4
83	Ebro	Aldea de Ebro	42.90234476	-4.034008237	CHE	26	9	2007	53	499	0.1	0.75	10.3	804	774.79	9.05
84	Tiron	Cerezo de Rio Tiron	42.4901376	-3.128718938	CHE	17	10	2007	181	761	0.1	12.55	11.6	640	645.68	4.7
85	Piedra	Nuevalos	41.21057681	-1.793653557	CHE	23	10	2007	35	383	0.11	18.56	11.5	428	687.99	5
86	Guadalope	Mas de las Matas	40.8282702	-0.235907671	CHE	24	10	2006	101	480	0.14	2.8	13.9	444	472.64	10.1
87	Guadalope	Alcaniz	41.07319341	-0.092226442	CHE	24	10	2006	136	566	0.29	16.07	14.7	421	299.72	10.25
88	Queiles	Los Fayos	41.87556496	-1.779999426	CHE	28	8	2007	38	258	0.11	10.75	12.5	471	566.38	10.4
89	Guadalope	Ladrunan	40.73495677	-0.379027783	CHE	27	7	2005	56	600	0.07	3.14	13	450	593.29	4.7
90	Arba de Riguel	Valarena	42.1322822	-1.254447343	CHE	26	8	2007	136	544	0.3	28.62	13.3	520	322.84	10.25
91	Henar	Embid De Ariza	41.36867359	-1.965368978	CHE	22	10	2007	120	208	0.11	12.35	11.1	465	768.18	4.7
92	Erro	Sorogain	42.98458221	-1.411421267	CHE	26	7	2005	89	640	0.07	1.78	9.7	1149	809.33	3.75
93	Alcanadre	Pedruel	42.25966893	-0.082411491	CHE	30	8	2007	91	566	0.05	1.05	10.8	599	634.92	3.15
94	Guatizalema	Nocito	42.30635008	-0.259622019	CHE	21	7	2005	145	390	0.06	0.9	9.4	684	884.3	2.8
95	Isuela	Calcena	41.64075567	-1.643260031	CHE	21	10	2007	54	379	0.1	11.65	11.7	458	686.52	3.75
96	Noguera de Tor	Llesp	42.4312765	0.741902214	CHE	11	7	2003	93	744	0.08	0.91	9.3	979	877.12	3.45
97	Veral	Zuriza	42.86279701	-0.819538894	CHE	21	7	2007	52	330	0.1	0.7	7.2	1070	1190.35	2.8
98	Alhama	Cintruenigo	42.05297754	-1.858131598	CHE	7	7	2007	125	542	0.05	11.94	13.1	484	416.36	5.65
99	Algas	Maella	41.0920387	0.214161159	CHE	23	7	2003	109	764	0.06	7.69	15.1	458	237.18	10.1
100	Matarrana	Beceite_1	40.85789628	0.15803679	CHE	17	6	2003	236	868	0.05	3.57	13.7	526	518.95	10
101	Matarrana	Tastavins	40.88823757	0.11241264	CHE	17	6	2003	263	951	0.09	6.25	14.1	501	472.43	10
102	Segre	Rialb	42.08117923	1.296734582	CHE	9	7	2003	71	1107	0.17	3.74	13.1	647	441.49	9.05
103	Matarrana	Beceite_2	40.80671426	0.189044493	CHE	21	7	2005	196	480	0.1	1.53	13.3	551	640.22	5
104	Ulldemo	Beceite	40.80452954	0.249210665	CHE	22	7	2003	185	848	0.06	3.28	12.7	581	655.67	3.45
105	Neila	Neila	42.08846815	-2.980593162	CHE	26	7	2005	70	240	0.06	1.22	9.5	630	1052.38	2.8
106	Tastavins	Valderrobres	40.87518313	0.088461109	CHE	22	7	2003	214	794	0.05	60.24	13.8	506	468.53	5
107	Araquil	Olazagutia	42.88900924	-2.174589427	CHE	17	7	2007	174	415	0.14	4.43	12.1	971	516.02	5.65
108	Baliera	Montanuy	42.4686394	0.646918042	CHE	4	7	2003	52	494	0.05	1.11	8.6	995	1046.4	3.75
109	Francoli	Pira	41.42182026	1.204748654	ACA	13	6	2008	46	300	0.49	16.29	14.2	581	366.51	2.26
110	Francoli	Pinetell	41.30563771	1.12836367	ACA	15	6	2008	81	387	0.1	2.4	13.8	602	448.01	0.59
111	Gaia	Pont Armentera 	41.40377655	1.327039672	ACA	27	6	2008	36	72	0.08	4.34	13.5	639	470.93	1.01
112	Noguera	Flamisell 	42.28132557	0.939935052	ACA	21	5	2009	39	850	0.08	2.31	11.7	763	608.81	0.41
113	Segre	Farfanya	41.82969057	0.728958656	ACA	7	6	2009	38	86.4	0.14	10.1	13.7	527	334.07	1.02
114	Noguera	Pont de Suert 	42.39672682	0.742304424	ACA	15	6	2009	92	643.33	0.08	3.31	10.3	922	827.8	0.59
115	Noguera	Castissent	42.12221088	0.701879386	ACA	26	6	2009	76	1342.28	0.43	2.84	12.1	675	505.39	1.05
116	Segre	Lleida	41.6207834	0.64136806	ACA	5	7	2009	207	2000	0.24	13.14	15.2	426	140.6	3.83
117	Segre	Rufea	41.57644853	0.597608846	ACA	7	7	2009	44	520	0.49	15	15.3	417	127.02	3.21
118	Ebro	Batea	41.0928005	0.216353034	ACA	17	7	2009	49	840	0.1	2.5	15.1	458	237.92	5